[
    {
        "id": "ef970757-fe42-416f-931d-722451f1f59c",
        "name": "10 Barrel Brewing Co",
        "brewery_type": "large",
        "address_1": "1501 E St",
        "address_2": null,
        "address_3": null,
        "city": "San Diego",
        "state_province": "California",
        "postal_code": "92101-6618",
        "country": "United States",
        "longitude": "-117.129593",
        "latitude": "32.714813",
        "phone": "6195782311",
        "website_url": "http://10barrel.com",
        "state": "California",
        "street": "1501 E St"
    },
    {
        "id": "5fdcc498-f9df-4fa5-b35d-487a59f0fecc",
        "name": "2Kids Brewing Company",
        "brewery_type": "micro",
        "address_1": "8680 Miralani Dr Ste 123",
        "address_2": null,
        "address_3": null,
        "city": "San Diego",
        "state_province": "California",
        "postal_code": "92126-6391",
        "country": "United States",
        "longitude": "-117.137429",
        "latitude": "32.896584",
        "phone": "8584805437",
        "website_url": "http://www.2kidsBrewing.com",
        "state": "California",
        "street": "8680 Miralani Dr Ste 123"
    },
    {
        "id": "3b0b5b9b-f6d8-49e3-8ebd-0bcef6939bcd",
        "name": "32 North Brewing Co",
        "brewery_type": "closed",
        "address_1": "8655 Production Ave Ste A",
        "address_2": null,
        "address_3": null,
        "city": "San Diego",
        "state_province": "California",
        "postal_code": "92121-2258",
        "country": "United States",
        "longitude": "-117.1649842",
        "latitude": "32.88313237",
        "phone": null,
        "website_url": null,
        "state": "California",
        "street": "8655 Production Ave Ste A"
    }
]